{
  "data": {
  "attributes": [
  {
  "id": 7,
  "name": "Ba-Nom-a-nom",
  "phone_number": "970-682-4666",
  "location": "72.37946, -37.87633",
  "address": "2900 Market st Denver, CO 80205",
  "status": false,
  "hours": "5:00-9:00pm",
  "description": "Best desserts you have ever had, and they happen to be vegan!",
  "tags": "#desserts #vegan #healthy #fruit",
  "website": "www.banomanom.com",
  "img": "https://encrypted-tbn0.gstatic.com/images?q=tbn:ANd9GcR3hJWqZUQ1y5-opPj2noXiCtn14Gpz4dSOz5uKKAD2UvTVeWxtld49cOhCwj9O4Mcg0-I&usqp=CAU",
  "wait_time": 20,
  "upvote": false,
  "downvote": false,
  "favorited": false,
  "up_rating": 0,
  "down_rating": 0
  },
  {
  "id": 10,
  "name": "Deja Roux Cajun & Soul",
  "phone_number": "303-883-3703",
  "location": "70.9837, 38.92847",
  "address": "1911 Sheridan Blvd Edgewater, Co 80214",
  "status": false,
  "hours": "11:00-3:00pm, 5:00-9:00pm",
  "description": "Looking for some delicious soul food? This is the place!",
  "tags": "#cajun #soulfood #delicious",
  "website": "www.dejaroux.com",
  "img": "https://encrypted-tbn0.gstatic.com/images?q=tbn:ANd9GcSfFwFwQQ-zf9O3IFYL4yr6LFoYLk2Cs3tIdQ&usqp=CAU",
  "wait_time": 20,
  "upvote": false,
  "downvote": false,
  "favorited": false,
  "up_rating": 0,
  "down_rating": 0
  },
  {
  "id": 9,
  "name": "The Gyros King",
  "phone_number": "720-443-8226",
  "location": "77.98327, 39.98473",
  "address": "2155 Sheridan Blvd Edgewater, CO 80214",
  "status": false,
  "hours": "11:00-2:00pm, 5:00-8:00pm",
  "description": "These gyros will knock your socks off!",
  "tags": "#gyros #greek #tzatziki",
  "website": "www.thegyroking.com",
  "img": "https://encrypted-tbn0.gstatic.com/images?q=tbn:ANd9GcQrnzT7x1l3oyy02Dswx0yyhPkAaSW-74c_Eg&usqp=CAU",
  "wait_time": 15,
  "upvote": false,
  "downvote": false,
  "favorited": false,
  "up_rating": 0,
  "down_rating": 0
  },
  {
  "id": 2,
  "name": "El Agave",
  "phone_number": "720-694-1767",
  "location": "75.28497, -36.984376",
  "address": "2301 Blake st Denver, CO 80205",
  "status": true,
  "hours": "6:00-12:00pm",
  "description": "We have great quesadillas and the best guacamole ever!",
  "tags": "#mexican #tacos #quesadillas #guac",
  "website": "www.elagave.com",
  "img": "https://encrypted-tbn0.gstatic.com/images?q=tbn:ANd9GcTs5_5ZSru8ALxP7RrTJGV3VMxDJ6g-5hA5XA&usqp=CAU",
  "wait_time": 15,
  "upvote": false,
  "downvote": false,
  "favorited": false,
  "up_rating": 0,
  "down_rating": 0
  },
  {
  "id": 8,
  "name": "Happy Cones",
  "phone_number": "720-336-3392",
  "location": "71.92847, -36.98374",
  "address": "1500 Larimer st Denver, CO 80202",
  "status": true,
  "hours": "10:00am-9:00pm",
  "description": "These cones will make you so happy!",
  "tags": "#icecream #cones #happiness #desserts",
  "website": "www.happycones.com",
  "img": "https://encrypted-tbn0.gstatic.com/images?q=tbn:ANd9GcT_fWBzWyW447IGGDhpy9r2Cb4rsO_bSe6g6HgdCiJUyaDsJ6_yhEPqXbt54ySDIVU7gTg&usqp=CAU",
  "wait_time": 10,
  "upvote": false,
  "downvote": false,
  "favorited": false,
  "up_rating": 0,
  "down_rating": 0
  },
  {
  "id": 1,
  "name": "El Elote Feliz",
  "phone_number": "720-422-8973",
  "location": "72.325235, -37.923857",
  "address": "2100 Market st Denver, CO 80205",
  "status": true,
  "hours": "6:00-11:00pm",
  "description": "The best tacos in the world!",
  "tags": "#mexican #tacos #awesomeness",
  "website": "www.elelotefeliz.com",
  "img": "https://kristineskitchenblog.com/wp-content/uploads/2023/02/tacos-recipe-16-2.jpg",
  "wait_time": 15,
  "upvote": false,
  "downvote": false,
  "favorited": false,
  "up_rating": 0,
  "down_rating": 0
  },
  {
  "id": 6,
  "name": "DBC Eats",
  "phone_number": "303-897-9832",
  "location": "72.8763, -38.98769",
  "address": "50 S Broadway Denver, CO 80209",
  "status": true,
  "hours": "6:00-2:00am",
  "description": "These burgers will have you mooing for more!",
  "tags": "#burgers #nachos #barfood #american",
  "website": "www.dbceats.com",
  "img": "https://encrypted-tbn0.gstatic.com/images?q=tbn:ANd9GcSjVKbQM5T6fMLf02HPQh1-jtsvDRQOxJkh7B3V_XArOD3HwKfn6CUjSXrOp1siyvQIHb8&usqp=CAU",
  "wait_time": 20,
  "upvote": false,
  "downvote": false,
  "favorited": false,
  "up_rating": 0,
  "down_rating": 0
  },
  {
  "id": 5,
  "name": "Mac and Noodles",
  "phone_number": "303-204-8782",
  "location": "73.98234, 40.92487",
  "address": "500 E 17th Ave Denver, CO",
  "status": true,
  "hours": "11:00-3:00pm, 5:00-9:00pm",
  "description": "This MacNCheese is to die for!",
  "tags": "#macaroni #cheese #noodles #macncheese",
  "website": "www.macandnoodles.com",
  "img": "https://encrypted-tbn0.gstatic.com/images?q=tbn:ANd9GcTCbkk2SnZiVNK_HNPiPZX9KTlp2tsTNQbWQmxEXiYJzLxlu1MZuLpeO5Iorsor_gV2fSs&usqp=CAU",
  "wait_time": 10,
  "upvote": false,
  "downvote": false,
  "favorited": false,
  "up_rating": 0,
  "down_rating": 0
  },
  {
  "id": 3,
  "name": "Ninja Ramen",
  "phone_number": "720-810-2189",
  "location": "73.98789, -35.9847",
  "address": "100 Broadway Denver, CO 80203",
  "status": true,
  "hours": "5:00-9:00pm",
  "description": "Best ramen you have ever tasted!",
  "tags": "#ramen #soup #noodles #asian",
  "website": "www.ninjaramen.com",
  "img": "https://encrypted-tbn0.gstatic.com/images?q=tbn:ANd9GcR4RtjALnHoxaxWWI8GfoWaqNbGACozqFrheSZX2vPVupFI2ok0qQ63vVRXWmxeqd5sR5M&usqp=CAU",
  "wait_time": 10,
  "upvote": false,
  "downvote": false,
  "favorited": false,
  "up_rating": 0,
  "down_rating": 0
  },
  {
  "id": 4,
  "name": "Taj Palace",
  "phone_number": "720-212-6837",
  "location": "70.92386, 40.09378",
  "address": "1000 E Colfax Denver, CO 80218",
  "status": false,
  "hours": "11:00-2:00pm, 5:00-8:00pm",
  "description": "Greatest curries on the planet!",
  "tags": "#curry #naan #rice #asian",
  "website": "www.tajpalace.com",
  "img": "https://encrypted-tbn0.gstatic.com/images?q=tbn:ANd9GcT0_EV4mk8uZ3qdd95MN7XI8hsdvg0fXUAPFQ&usqp=CAU",
  "wait_time": 20,
  "upvote": false,
  "downvote": false,
  "favorited": false,
  "up_rating": 0,
  "down_rating": 0
  }
  ]
  }
  }